[{
        "name": "Pensacola Beach",
        "lon": "-87.068563",
        "lat": "30.349849"
    },
    {
        "name": "Fort Walton Beach",
        "lon": "-86.609404",
        "lat": "30.424803"
    }, {
        "name": "Henderson Beach State Park",
        "lon": "-86.443851",
        "lat": "30.383478"
    },
    {
        "name": "St George Island Gulfside",
        "lon": "-84.901268",
        "lat": "29.643183"
    }, {
        "name": "Caladesi Island",
        "lon": "-82.819805",
        "lat": "28.031805"
    },
    {
        "name": "Clearwater Beach",
        "lon": "-82.825990",
        "lat": "27.978431"
    },
    {
        "name": "Fort Desoto",
        "lon": "-82.716803",
        "lat": "27.645730"
    }, {
        "name": "Manatee Beach",
        "lon": "-82.712548",
        "lat": "27.497341"
    }, {
        "name": "Coquina Beach",
        "lon": "-82.692195",
        "lat": "27.451576"
    }, {
        "name": "Lido Key",
        "lon": "-82.576448",
        "lat": "27.311964"
    }, {
        "name": "Siesta Key",
        "lon": "-82.544895",
        "lat": "27.263529"
    }, {
        "name": "Venice Beach",
        "lon": "-118.459484",
        "lat": "33.978543"
    }, {
        "name": "Manasota Beach",
        "lon": "-82.412357",
        "lat": "27.009911"
    }, {
        "name": "GI State Park(South Lighthouse)",
        "lon": "-82.260697",
        "lat": "26.719139"
    }, {
        "name": "Light House Beach Sanibel Island",
        "lon": "-82.027375",
        "lat": "26.450440"
    }, {
        "name": "Barefoot Beach",
        "lon": "-81.834495",
        "lat": "26.301250"
    }, {
        "name": "Vanderbilt Beach",
        "lon": "-81.823330",
        "lat": "26.253653"
    }, {
        "name": "South Marco Beach",
        "lon": "-81.731920",
        "lat": "25.939219"
    }
]